[
  {
    "RestaurantID": "1",
    "Name": "Baiyoke Delivery",
    "Location_Latitude": "13.7563",
    "Location_Longitude": "100.5018",
    "Rating": "4.5",
    "Reviews": "357"
  },
  {
    "RestaurantID": "2",
    "Name": "Sawasdee Thai",
    "Location_Latitude": "13.7599",
    "Location_Longitude": "100.5021",
    "Rating": "4.2",
    "Reviews": "123"
  },
  {
    "RestaurantID": "3",
    "Name": "Green Curry House",
    "Location_Latitude": "13.7565",
    "Location_Longitude": "100.5005",
    "Rating": "4.0",
    "Reviews": "234"
  },
  {
    "RestaurantID": "4",
    "Name": "Spicy Spoon",
    "Location_Latitude": "13.7544",
    "Location_Longitude": "100.5032",
    "Rating": "3.9",
    "Reviews": "178"
  },
  {
    "RestaurantID": "5",
    "Name": "Thai Express",
    "Location_Latitude": "13.7581",
    "Location_Longitude": "100.5002",
    "Rating": "4.3",
    "Reviews": "256"
  },
  {
    "RestaurantID": "6",
    "Name": "Bangkok Bites",
    "Location_Latitude": "13.7568",
    "Location_Longitude": "100.5028",
    "Rating": "4.4",
    "Reviews": "198"
  },
  {
    "RestaurantID": "7",
    "Name": "Golden Elephant",
    "Location_Latitude": "13.7592",
    "Location_Longitude": "100.5011",
    "Rating": "4.1",
    "Reviews": "312"
  },
  {
    "RestaurantID": "8",
    "Name": "Tasty Thai",
    "Location_Latitude": "13.7541",
    "Location_Longitude": "100.5035",
    "Rating": "4.6",
    "Reviews": "276"
  },
  {
    "RestaurantID": "9",
    "Name": "Chili Garden",
    "Location_Latitude": "13.7572",
    "Location_Longitude": "100.5009",
    "Rating": "4.3",
    "Reviews": "234"
  },
  {
    "RestaurantID": "10",
    "Name": "Pad Thai Paradise",
    "Location_Latitude": "13.7569",
    "Location_Longitude": "100.5024",
    "Rating": "4.5",
    "Reviews": "321"
  }
]